City,Cloudiness,Country_code,Date,Humidity,Latitude,Longitude,Max_temp,Wind_speed
Vanavara,20,RU,1547326155,53,60.35,102.28,244.885,1.85
Rikitea,76,PF,1547325924,100,-23.12,-134.97,299.235,6.25
Georgetown,75,GY,1547323200,69,6.8,-58.16,301.15,7.2
Nouakchott,0,MR,1547323200,6,18.08,-15.98,296.15,3.1
Punta Arenas,75,CL,1547323200,53,-53.16,-70.91,283.15,17.5
Longyearbyen,20,NO,1547322600,55,78.22,15.63,259.15,8.2
Port Alfred,0,ZA,1547326156,90,-33.59,26.89,293.36,1.45
Kloulklubed,90,PW,1547322600,94,7.04,134.26,298.15,4.1
Thompson,90,CA,1547323200,78,55.74,-97.86,261.15,5.7
Vila Franca do Campo,40,PT,1547323200,77,37.72,-25.43,289.15,5.7
Itarema,68,BR,1547326067,93,-2.92,-39.92,298.16,2.05
Victor Harbor,20,AU,1547323200,63,-35.55,138.62,289.15,5.7
Busselton,0,AU,1547326157,100,-33.64,115.35,290.61,8.4
Caala,24,AO,1547326158,67,-12.85,15.56,291.485,2.05
Carauari,64,BR,1547326158,80,-4.88,-66.9,301.66,1.25
Nikolskoye,75,RU,1547323200,85,59.7,30.79,268.15,6
Atuona,80,PF,1547326158,100,-9.8,-139.03,299.11,7.35
Vardo,90,US,1547324400,45,39.62,-77.74,275.15,3.6
Hamilton,90,CA,1547323200,79,43.26,-79.87,269.15,5.1
Dalvik,75,SE,1547324400,100,57.79,14.13,272.15,1.5
Tuktoyaktuk,75,CA,1547323200,75,69.44,-133.03,247.15,4.6
Flinders,12,AU,1547326159,81,-34.58,150.85,294.035,2.9
Formosa,40,AR,1547323200,62,-26.19,-58.17,305.15,5.1
Brae,92,GB,1547324400,87,60.4,-1.35,281.15,7.7
Hermanus,0,ZA,1547326003,65,-34.42,19.24,288.71,4.2
Arraial do Cabo,20,BR,1547323200,69,-22.97,-42.02,303.15,7.2
Ponta Delgada,40,PT,1547323200,77,37.73,-25.67,289.15,5.7
Qaanaaq,0,GL,1547326160,100,77.48,-69.36,242.335,3.85
Pitimbu,20,BR,1547323200,83,-7.47,-34.81,299.15,3.6
Bandipur,0,IN,1547326161,85,11.67,76.63,286.96,0.95
San Patricio,36,PY,1547325998,93,-26.98,-56.83,299.41,1.4
Castro,0,CL,1547323200,67,-42.48,-73.76,288.15,3.6
Mataura,92,NZ,1547326000,89,-46.19,168.86,285.81,1.05
Ushuaia,75,AR,1547323200,81,-54.81,-68.31,279.15,18
Chuy,92,UY,1547326162,89,-33.69,-53.46,294.41,6.55
Khatanga,48,RU,1547326162,47,71.98,102.47,239.335,5.45
Kavieng,48,PG,1547326162,100,-2.57,150.8,300.535,4.65
Mazamari,92,PE,1547326163,91,-11.33,-74.53,293.41,1
Ribeira Grande,20,PT,1547323200,77,38.52,-28.7,289.15,9.3
Saint-Philippe,1,CA,1547325300,55,45.36,-73.48,261.05,3.1
Smithers,90,CA,1547323200,100,54.78,-127.17,274.15,1
Cayenne,75,GF,1547325000,69,4.94,-52.33,301.15,6.2
Pierre,90,US,1547322780,91,44.37,-100.35,264.85,2.1
Chico,40,US,1547322840,54,39.73,-121.84,287.55,1.3
Henties Bay,0,NA,1547326164,100,-22.12,14.28,289.91,3.3
Clearlake,1,US,1547322960,64,38.96,-122.63,287.55,1.75
Barra,32,BR,1547326164,35,-11.09,-43.14,305.86,1.85
Leningradskiy,8,RU,1547326165,100,69.38,178.42,244.71,3.8
Novaya Ladoga,80,RU,1547326165,80,60.11,32.31,269.36,3.25
Piacabucu,88,BR,1547326165,67,-10.41,-36.43,300.66,5.2
Pisco,0,PE,1547323200,30,-13.71,-76.2,295.15,12.3
Norman Wells,20,CA,1547323200,66,65.28,-126.83,238.15,2.1
Cherskiy,56,RU,1547326045,51,68.75,161.3,245.785,0.7
Hilo,1,US,1547322780,71,19.71,-155.08,297.55,3.1
Hobart,20,AU,1547323200,76,-42.88,147.33,284.15,3.1
Hasaki,90,JP,1547325000,86,35.73,140.83,277.15,4.1
Mount Isa,0,AU,1547325000,39,-20.73,139.49,299.15,2.1
Chokurdakh,80,RU,1547325999,71,70.62,147.9,242.31,3.2
Dikson,76,RU,1547326166,100,73.51,80.55,245.735,14.5
Ponta do Sol,24,BR,1547326167,67,-20.63,-46,300.06,1.4
Avarua,75,CK,1547323200,70,-21.21,-159.78,302.15,2.6
Sao Filipe,0,CV,1547325948,96,14.9,-24.5,295.61,4.45
Kahului,90,US,1547325300,88,20.89,-156.47,299.85,7.7
Boende,32,CD,1547326167,84,-0.28,20.88,298.835,1.6
Mar del Plata,12,AR,1547326167,29,-46.43,-67.52,294.21,6.25
Airai,32,TL,1547326168,87,-8.93,125.41,293.585,0.85
Honiara,80,SB,1547326168,100,-9.43,159.96,297.435,1.3
Pevek,0,RU,1547326004,64,69.7,170.27,243.385,2
Tecoanapa,5,MX,1547322480,66,16.99,-99.26,302.15,5.7
Bilma,20,NE,1547326168,21,18.69,12.92,289.71,6.2
Berlevag,88,NO,1547326168,100,70.86,29.09,269.21,1.3
Noumea,0,NC,1547325000,78,-22.28,166.46,299.15,2.6
New Norfolk,20,AU,1547325000,62,-42.78,147.06,286.15,3.1
Seoul,1,KR,1547325000,85,37.57,126.98,270.15,1
Kavaratti,0,IN,1547326169,100,10.57,72.64,300.71,2.85
Great Bend,90,US,1547323500,92,38.36,-98.78,271.15,9.8
Atasu,68,KZ,1547326169,81,48.68,71.64,260.585,4.45
Peterhead,20,AU,1547325000,59,-34.83,138.5,289.15,3.6
Lebedinyy,0,RU,1547326170,65,58.52,125.52,249.985,1.35
Faanui,88,PF,1547326046,100,-16.48,-151.75,300.71,10.1
Victoria,75,BN,1547325000,88,5.28,115.24,300.15,1.5
Guangyuan,0,CN,1547326171,80,32.43,105.86,267.31,1.35
Ancud,0,CL,1547323200,67,-41.87,-73.83,288.15,3.6
Byron Bay,92,AU,1547323200,100,-28.65,153.62,294.15,2.55
Cape Town,40,ZA,1547323200,68,-33.93,18.42,292.15,3.1
Albany,20,US,1547324220,31,42.65,-73.75,269.25,5.1
Yellowknife,90,CA,1547323200,83,62.45,-114.38,253.15,4.6
Nikko,48,JP,1547326171,83,36.75,139.62,268.66,1.65
La Paz Centro,20,NI,1547323200,48,12.34,-86.68,304.15,9.3
Newton,90,US,1547325300,92,41.7,-93.05,272.55,6.2
Puerto Ayora,40,EC,1547323200,55,-0.74,-90.35,303.15,7.7
Beringovskiy,32,RU,1547326137,95,63.05,179.32,252.685,10.55
Port Elizabeth,75,US,1547322960,30,39.31,-74.98,274.85,2.1
Sitka,68,US,1547326021,89,37.17,-99.65,275.46,7.4
Bolobo,8,CD,1547326173,97,-2.17,16.23,297.11,1.4
Yulara,0,AU,1547323200,23,-25.24,130.99,303.15,4.1
Los Llanos de Aridane,0,ES,1547325000,59,28.66,-17.92,290.15,3.1
Charagua,75,BO,1547323200,53,-19.79,-63.2,298.15,7
Batagay-Alyta,24,RU,1547326174,54,67.8,130.41,237.085,2.05
Vaini,0,IN,1547326174,86,15.34,74.49,288.41,1.35
Ahipara,8,NZ,1547326174,70,-35.17,173.16,295.31,2.25
Hervey Bay,64,AU,1547323200,88,-25.3,152.85,294.15,3.1
Ardmore,40,US,1547325600,81,34.99,-86.85,281.45,3.6
Manoel Urbano,88,BR,1547326175,98,-8.84,-69.26,296.235,1.5
Esperance,20,TT,1547323200,54,10.24,-61.45,302.15,6.7
Zhanaozen,0,KZ,1547326175,87,43.35,52.85,273.985,4.15
Ayacucho,75,PE,1547323200,46,-13.16,-74.23,294.15,5.7
Bethel,75,US,1547324100,77,60.79,-161.76,249.25,9.8
Cabo San Lucas,5,MX,1547322240,64,22.89,-109.91,299.15,1.5
Kodiak,90,US,1547325360,95,39.95,-94.76,273.15,7.7
Hofn,92,IS,1547326176,100,64.25,-15.21,275.56,4.6
Humaita,40,AR,1547323200,68,-24.93,-65.37,298.15,3.1
Pinawa,76,CA,1547326176,84,50.15,-95.88,266.96,3.75
Butaritari,76,KI,1547326176,100,3.07,172.79,301.66,4.65
Kaitangata,92,NZ,1547326069,81,-46.28,169.85,287.21,2.65
Carnarvon,0,ZA,1547326177,54,-30.97,22.13,290.535,5.5
Deputatskiy,48,RU,1547326177,53,69.3,139.9,237.535,1.25
Winnemucca,1,US,1547322960,42,40.97,-117.74,278.15,2.1
Kapaa,40,US,1547324940,62,22.08,-159.32,298.75,3.1
Hovd,75,NO,1547324400,100,63.83,10.7,274.15,4.6
Beloha,80,MG,1547326178,95,-25.17,45.06,296.56,0.75
Saint-Pierre,90,FR,1547323200,93,48.95,4.24,281.15,7.7
Praia da Vitoria,40,PT,1547323200,82,38.73,-27.07,289.15,10.45
Adrar,0,DZ,1547323200,34,27.87,-0.29,282.15,5.1
Cidreira,92,BR,1547326179,89,-30.17,-50.22,297.335,6.95
Xining,0,CN,1547325914,61,36.62,101.77,252.485,1
Nadvoitsy,88,RU,1547326179,82,63.89,34.27,270.31,3.55
Bluff,0,AU,1547326006,78,-23.58,149.07,294.585,3.2
Smirnykh,0,RU,1547326179,69,49.74,142.83,254.41,3.9
Dunhua,0,CN,1547326180,53,43.37,128.23,254.785,1.2
Richards Bay,8,ZA,1547326095,92,-28.77,32.06,293.785,1.3
Laguna,20,MX,1547322180,38,27.52,-110.01,298.15,4.1
Touros,75,BR,1547323200,78,-5.2,-35.46,301.15,3.1
The Pas,20,CA,1547323200,78,53.82,-101.24,263.15,5.1
Mahebourg,40,MU,1547323200,78,-20.41,57.7,300.15,6.2
Tasiilaq,75,GL,1547322600,67,65.61,-37.64,265.15,1
Codrington,40,AU,1547323200,93,-28.95,153.24,292.15,1.6
Saskylakh,0,RU,1547326181,0,71.97,114.09,224.96,1.85
Eureka,1,US,1547325300,100,40.8,-124.16,290.35,4.1
Lavrentiya,8,RU,1547326182,100,65.58,-170.99,249.285,11.55
Isla Vista,75,US,1547324700,76,34.41,-119.86,288.75,1.5
Kafue,88,ZM,1547326182,97,-15.74,28.18,293.66,1.95
Mogadishu,32,SO,1547325901,100,2.04,45.34,299.335,10.15
Meulaboh,0,ID,1547326182,100,4.14,96.13,298.46,1.6
Eatonton,90,US,1547324100,61,33.33,-83.39,281.15,4.1
El Seibo,75,DO,1547323200,94,18.76,-69.04,298.15,2.6
Muisne,75,EC,1547323200,94,0.61,-80.02,299.15,2.1
Fortuna,0,ES,1547323200,70,38.18,-1.13,279.15,2.6
Peniche,0,PT,1547323200,87,39.36,-9.38,282.15,1.5
Port Keats,56,AU,1547326136,100,-14.25,129.55,298.735,2.4
Chimbote,0,PE,1547326123,79,-9.08,-78.59,297.335,4.85
Necochea,12,AR,1547326184,61,-38.55,-58.74,301.36,4.1
Aizpute,68,LV,1547324400,100,56.72,21.61,271.15,1.35
Bredasdorp,0,ZA,1547323200,43,-34.53,20.04,294.15,4.6
Orlik,36,RU,1547326184,64,52.51,99.83,252.71,3
Talcahuano,75,CL,1547323200,72,-36.72,-73.12,291.15,6.2
Talavera,75,PH,1547323200,78,15.58,120.92,297.15,1
Kudahuvadhoo,80,MV,1547326185,100,2.67,72.89,300.035,4
Guerrero Negro,44,MX,1547326185,72,27.97,-114.04,291.41,2.65
Pangnirtung,5,CA,1547323200,67,66.15,-65.72,240.15,3.1
Hailar,56,CN,1547326186,77,49.2,119.7,254.31,3.05
Batemans Bay,64,AU,1547326187,90,-35.71,150.18,292.285,2.75
Banda Aceh,12,ID,1547326187,97,5.56,95.32,296.06,2.05
Nizhnekamsk,90,RU,1547325000,92,55.64,51.82,272.15,6
Atar,0,MR,1547326187,16,20.52,-13.05,288.86,3.15
Vytegra,88,RU,1547326188,88,61.01,36.45,268.36,5.55
Mehamn,88,NO,1547326188,90,71.03,27.85,272.96,6.25
Klaksvik,92,FO,1547324400,100,62.23,-6.59,279.15,0.5
Bandarbeyla,68,SO,1547326188,100,9.49,50.81,297.935,7.8
Price,1,US,1547322780,58,39.6,-110.81,274.85,1.5
Namatanai,68,PG,1547326115,100,-3.66,152.44,301.31,6.45
Taganak,75,PH,1547323200,94,6.08,118.3,298.15,2.5
Bambous Virieux,40,MU,1547323200,78,-20.34,57.76,300.15,6.2
Kruisfontein,0,ZA,1547326189,90,-34,24.73,290.585,3.35
Arona,0,IT,1547324400,72,45.76,8.56,274.15,1
Upernavik,20,GL,1547326190,100,72.79,-56.15,252.41,5.1
Pedra Branca,44,BR,1547326190,79,-5.46,-39.72,298.91,1.25
Clyde River,20,CA,1547323200,66,70.47,-68.59,238.15,3.1
Fairfield,1,US,1547324400,76,38.25,-122.04,288.75,3.1
Pochutla,75,MX,1547322300,62,15.74,-96.47,303.15,3.2
Bujumbura,48,BI,1547326191,100,-3.36,29.37,289.835,0.95
Souillac,90,FR,1547323200,93,45.6,-0.6,279.15,3.1
Boca do Acre,56,BR,1547326191,88,-8.76,-67.39,299.285,1.35
Rocha,68,UY,1547326004,62,-34.48,-54.34,297.91,5
Ilulissat,75,GL,1547322600,48,69.22,-51.1,252.15,4.6
Waddan,0,LY,1547326192,42,29.16,16.14,279.21,5.8
Provideniya,12,RU,1547326192,100,64.42,-173.23,248.435,7.9
Port Augusta,0,AU,1547323200,72,-32.49,137.76,292.15,6.2
Kalevala,12,FI,1547325999,79,64.12,29.58,267.91,3.45
Dalbandin,0,PK,1547326192,75,28.9,64.41,277.36,2.85
Sorong,64,ID,1547326116,100,-0.86,131.25,299.935,3.45
Kamaishi,92,JP,1547326138,91,39.28,141.86,271.31,1.9
Barrow,36,AR,1547326193,95,-38.31,-60.23,296.085,2.95
Petropavlovsk-Kamchatskiy,88,RU,1547323200,85,53.05,158.65,273.15,1
East London,0,ZA,1547326193,99,-33.02,27.91,295.985,7.9
Kutum,0,SD,1547326193,72,14.2,24.66,284.81,1.15
Severo-Kurilsk,88,RU,1547325937,100,50.68,156.12,273.235,6.95
Barentu,0,ER,1547326193,38,15.11,37.59,288.335,1.2
Kita,90,JP,1547325000,70,35.76,139.74,279.15,6.2
Xuddur,0,SO,1547326194,66,4.12,43.89,294.585,4
San Cristobal,40,EC,1547325480,59,-0.39,-78.55,293.15,7.2
Kano,0,NG,1547323200,33,11.99,8.53,297.15,1
Lorengau,76,PG,1547326195,99,-2.02,147.27,301.71,7
Cheltenham,40,GB,1547324400,81,51.9,-2.07,283.15,6.2
Balabac,8,PH,1547325953,100,7.99,117.06,300.335,7.35
Inirida,8,CO,1547326195,61,3.87,-67.92,303.16,1.25
San Juan,0,AR,1547326082,29,-31.54,-68.53,303.36,2.4
Huarmey,0,PE,1547326196,47,-10.07,-78.15,299.335,2.9
Hami,76,CN,1547326197,55,42.84,93.51,258.485,1.4
Semey,8,KZ,1547326197,57,50.41,80.25,252.085,2.2
Port Lincoln,8,AU,1547326197,95,-34.72,135.86,290.985,6.25
Callaguip,0,PH,1547326198,100,18.07,120.49,289.535,1.65
Borogontsy,8,RU,1547326198,0,62.67,131.17,231.935,0.4
Egvekinot,0,RU,1547326097,0,66.32,-179.17,229.835,1.75
Vestmannaeyjar,92,IS,1547326198,100,63.44,-20.27,277.785,7.6
Tiksi,44,RU,1547326198,40,71.64,128.87,240.91,3.75
Yumen,8,CN,1547326199,46,40.29,97.04,252.535,1.6
Xiuyan,0,CN,1547326199,69,40.29,123.27,259.31,0.35
Tommot,0,RU,1547326199,62,58.97,126.27,250.635,1.55
Bang Saphan,0,TH,1547326199,94,11.21,99.51,296.61,1.65
Komsomolskiy,64,RU,1547326200,81,67.55,63.78,258.435,7.9
Te Anau,100,NZ,1547326013,71,-45.41,167.72,285.785,4.7
Gari,80,RU,1547326200,77,59.43,62.35,263.435,3.7
Fomboni,80,KM,1547326200,100,-12.28,43.74,301.71,5.1
Muncar,56,ID,1547326200,100,-8.43,114.34,298.985,0.8
Umm Kaddadah,8,SD,1547326201,78,13.6,26.69,287.16,1.55
Dickinson,90,US,1547322960,87,46.88,-102.79,265.95,2.6
Taltal,0,CL,1547326175,61,-25.41,-70.49,293.435,2.2
Katsuura,20,JP,1547323200,86,33.93,134.5,276.15,2.6
Waipawa,0,NZ,1547325917,75,-39.94,176.59,293.235,2.05
Beihai,0,CN,1547325000,86,38.95,121.19,274.15,4
Beyla,8,GN,1547326202,45,8.69,-8.65,294.91,2.75
Alofi,40,NU,1547323200,69,-19.06,-169.92,301.15,6.2
Kirovskiy,0,RU,1547326203,34,45.09,133.51,249.91,1.15
Homer,90,US,1547324520,87,59.64,-151.54,267.55,2.1
Matagami,8,NG,1547326203,29,9.67,8.4,295.085,3.45
Ferrol,75,ES,1547323200,71,43.48,-8.23,283.15,3.1
Boffa,0,GN,1547326203,65,10.18,-14.04,299.06,4.5
Opuwo,0,NA,1547326204,25,-18.06,13.84,293.985,2.95
Havoysund,40,NO,1547324400,64,71,24.66,274.15,12.3
Jamestown,0,AU,1547325982,37,-33.21,138.6,291.66,5.35
Mildura,0,AU,1547323200,48,-34.18,142.16,290.15,4.1
Menongue,76,AO,1547326205,27,-14.66,17.68,298.285,1.7
Pacific Grove,75,US,1547324100,68,36.62,-121.92,289.15,2.1
Pascagoula,90,US,1547325240,75,30.37,-88.56,293.75,5.7
Lompoc,75,US,1547324100,72,34.64,-120.46,289.25,4.6
Bathsheba,40,BB,1547323200,58,13.22,-59.52,301.15,7.2
Arlit,36,NE,1547326205,44,18.74,7.39,288.285,2.85
Chulman,36,RU,1547326206,68,56.84,124.9,249.16,1.25
Nchelenge,64,ZM,1547326206,100,-9.35,28.74,293.16,1.65
Iqaluit,20,CA,1547323200,67,63.75,-68.52,241.15,11.8
Nantucket,1,US,1547325300,25,41.28,-70.1,272.05,5.7
Sambava,36,MG,1547326206,100,-14.27,50.17,299.285,1.75
Asifabad,0,IN,1547326207,87,19.38,79.29,288.485,2.1
Lilongwe,80,MW,1547326097,96,-13.97,33.79,292.735,1.6
Hit,80,IQ,1547326207,85,33.64,42.83,277.835,2.9
Gurh,92,IN,1547326207,84,24.52,81.52,287.335,1.45
Yurkivka,75,UA,1547325000,92,47.64,35.68,270.15,4
Khorinsk,24,RU,1547326014,43,52.16,109.78,246.585,0.85
Begowal,92,IN,1547326208,98,30.81,76.06,284.285,3.2
Namibe,0,AO,1547326044,100,-15.19,12.15,296.61,3.95
Nacala,68,MZ,1547326208,96,-14.56,40.69,300.535,6.35
Gravdal,75,NO,1547324400,87,59.79,5.78,280.15,6.7
Caravelas,12,BR,1547326209,100,-17.73,-39.27,300.31,5.2
Saldanha,0,PT,1547326209,86,41.42,-6.55,269.56,1.55
Coyah,0,GN,1547323200,78,9.71,-13.39,300.15,2.5
Autun,90,FR,1547323200,81,46.95,4.3,279.15,4.1
Margate,20,AU,1547325000,62,-43.03,147.26,286.15,3.1
Bedesa,0,ET,1547326209,75,8.9,40.78,279.435,1.05
Beira,75,ES,1547323200,71,43.2,-8.36,283.15,3.1
Iquique,0,CL,1547323200,61,-20.22,-70.14,298.15,10.3
Virginia Beach,90,US,1547325300,62,36.85,-75.98,279.25,4.1
Bako,0,NG,1547326210,66,9.68,6.4,295.485,1.5
Asyut,0,EG,1547323200,57,27.18,31.19,284.15,3.1
Hays,90,US,1547322960,84,38.88,-99.33,270.95,8.7
Passy,90,FR,1547324400,69,45.92,6.69,277.15,4.6
Manyoni,92,TZ,1547326211,100,-5.75,34.84,290.91,1.55
Kaka,0,TM,1547326211,75,37.35,59.62,267.735,1.8
San Matias,40,HN,1547323200,42,13.97,-86.63,300.15,3.1
Dunedin,92,NZ,1547326021,78,-45.87,170.5,287.985,2.95
Isangel,68,VU,1547326212,100,-19.55,169.27,298.66,2.1
Westport,92,IE,1547326212,98,53.8,-9.52,282.46,8.2
Jardim,20,BR,1547326212,62,-21.48,-56.15,304.185,3
Kang,0,BW,1547326212,16,-23.67,22.79,297.735,4.95
Luderitz,36,NA,1547326009,93,-26.65,15.16,289.71,2.5
Lazaro Cardenas,20,MX,1547322120,51,28.39,-105.62,288.15,4.1
Zverinogolovskoye,88,RU,1547326213,86,54.46,64.85,264.61,8.45
Elat,68,CM,1547326213,81,2.91,11.16,296.61,1.65
Alugan,48,PH,1547326009,97,12.22,125.48,298.485,5
Port Macquarie,0,AU,1547323200,93,-31.43,152.91,292.15,2.25
Nome,40,US,1547324100,48,30.04,-94.42,295.35,5.7
Basudebpur,0,IN,1547326214,100,21.14,86.74,292.16,2.1
Saint George,75,GR,1547322600,70,39.45,22.34,276.15,1.05
Lagoa,0,PT,1547323200,62,37.14,-8.45,284.15,4.1
Constitucion,5,MX,1547322240,25,23.99,-104.67,290.15,2.1
Mazagao,75,BR,1547323200,62,-0.12,-51.29,304.15,3.6
Gap,0,FR,1547326215,93,44.56,6.08,262.185,0.95
Talnakh,44,RU,1547326040,90,69.49,88.39,232.71,3.85
Qasigiannguit,75,GL,1547322600,48,68.82,-51.19,252.15,4.6
Doha,0,QA,1547325000,67,25.29,51.53,290.15,3.1
Tezu,0,IN,1547326216,54,27.93,96.16,283.035,0.85
Bonga,0,ET,1547326216,65,7.26,36.25,284.935,1.2
Nanortalik,88,GL,1547326216,94,60.14,-45.24,271.735,8.85
Koumac,68,NC,1547326216,100,-20.56,164.28,297.71,1.15
Alyangula,92,AU,1547323200,88,-13.85,136.42,300.15,2.6
Fairbanks,36,US,1547324880,65,64.84,-147.72,236.15,1.95
Karaton,40,ID,1547323200,83,-6.34,106.1,299.15,2.1
Batsfjord,80,NO,1547326217,100,70.63,29.72,275.185,2.1
Tiarei,90,PF,1547325000,74,-17.53,-149.33,301.15,8.7
Nalut,0,LY,1547326218,83,31.86,10.98,272.985,2
Voznesenye,76,RU,1547326218,84,61.02,35.48,268.485,5.9
Ylivieska,8,FI,1547326218,77,64.07,24.53,269.735,3
Najran,0,SA,1547323200,45,17.54,44.22,290.15,1.2
Haines Junction,12,CA,1547326218,46,60.75,-137.51,245.235,0.95
Great Yarmouth,75,GB,1547324400,93,52.61,1.73,281.15,6.2
Coihaique,20,CL,1547323200,44,-45.58,-72.07,288.15,5.7
Kalaleh,44,IR,1547323200,34,37.38,55.49,283.15,1
Xiazhen,40,TW,1547325000,93,23.89,120.95,289.15,5.7
Hithadhoo,8,MV,1547326189,100,-0.6,73.08,300.56,1.95
Sergeyevka,88,KZ,1547326219,83,53.88,67.42,262.66,8.8
Hirara,100,JP,1547326073,100,24.8,125.28,294.235,8.7
Payakumbuh,36,ID,1547326220,95,-0.23,100.63,293.61,1.05
Santander,56,PH,1547326220,100,9.42,123.33,298.66,5.05
Vila do Maio,0,CV,1547323200,64,15.13,-23.22,295.15,3.1
Vondrozo,100,MG,1547326220,97,-22.82,47.32,295.21,1.2
Carmelo,20,UY,1547323200,51,-34,-58.28,300.15,2.1
Aurora,90,US,1547325300,93,41.76,-88.32,272.65,5.7
Mao,75,DO,1547323200,78,19.55,-71.08,300.15,2.6
Port-Gentil,40,GA,1547323200,88,-0.72,8.78,300.15,3.1
Sao Joao da Barra,0,BR,1547323200,62,-21.64,-41.05,302.15,2.1
Baruun-Urt,0,MN,1547326222,45,46.68,113.28,250.41,3.2
Grindavik,75,IS,1547325000,100,63.84,-22.43,274.15,2.6
Libreville,40,GA,1547325000,88,0.39,9.45,301.15,4.6
Alice Springs,0,AU,1547325000,41,-23.7,133.88,297.15,2.1
Hue,90,VN,1547325000,100,16.47,107.58,293.15,1
Liwale,24,TZ,1547326223,94,-9.8,37.92,294.535,2.55
Obzor,0,BG,1547323200,91,42.82,27.88,273.15,3.6
Rockingham,75,GB,1547324400,87,52.52,-0.72,283.15,7.7
Muros,0,ES,1547323200,81,42.77,-9.06,280.15,3.1
Shimoda,20,JP,1547320680,75,34.7,138.93,281.15,2.6
Okhotsk,0,RU,1547326224,100,59.36,143.24,250.66,4
Wajima,8,JP,1547326224,100,37.4,136.9,275.96,3.35
Xacmaz,0,AZ,1547325990,90,41.46,48.81,269.21,1.65
Skibbereen,75,IE,1547325000,93,51.55,-9.27,282.15,5.1
Poum,0,MK,1547326083,68,41.28,20.71,256.735,0.55
Shu,0,KZ,1547326224,59,43.6,73.76,261.06,1.7
Grand Gaube,40,MU,1547323200,78,-20.01,57.66,300.15,6.2
Pozo Colorado,48,PY,1547326225,65,-23.49,-58.8,305.21,3.55
Mount Gambier,0,AU,1547323200,87,-37.83,140.78,285.15,3.6
Malindi,0,KE,1547326225,91,-3.22,40.12,299.66,6.75
Amapa,40,HN,1547323200,58,15.09,-87.97,301.15,3.6
Ayorou,0,NE,1547326226,22,14.73,0.92,293.335,4.3
Dhemaji,0,IN,1547326226,75,27.48,94.56,278.96,1.05
Kawalu,64,ID,1547326226,98,-7.38,108.21,291.96,0.85
Burnie,32,AU,1547326055,96,-41.05,145.91,290.985,7.15
Mackay,20,CA,1547323200,79,53.65,-115.58,272.15,1.5
Coos Bay,1,US,1547322960,64,43.37,-124.22,287.05,2.6
Villarrica,75,CL,1547323200,64,-39.28,-72.23,293.15,2.6
Flin Flon,90,CA,1547323200,85,54.77,-101.88,261.15,5.1
Cockburn Town,88,TC,1547326215,100,21.46,-71.14,298.085,8.75
Lasa,20,CY,1547323200,71,34.92,32.53,286.15,3.6
Geraldton,5,CA,1547323200,38,49.72,-86.95,259.15,1.45
Xai-Xai,12,MZ,1547326228,97,-25.04,33.64,298.935,6.8
Tazovskiy,80,RU,1547326228,74,67.47,78.7,249.21,9.5
Daru,48,SL,1547326229,49,7.99,-10.85,301.06,1.2
Jega,0,NG,1547326229,36,12.22,4.38,296.11,3.75
Lanigan,20,CA,1547326229,84,51.85,-105.03,267.085,6
Sarai Alamgir,92,PK,1547326229,100,32.9,73.75,281.56,1.4
Changji,36,CN,1547326230,88,32.07,116.17,270.66,1.2
Hualmay,0,PE,1547326051,59,-11.1,-77.61,298.56,3.85
Encruzilhada,88,BR,1547326230,62,-15.53,-40.91,298.96,4.05
Jeremie,76,HT,1547326230,97,18.65,-74.12,298.31,1
Kindu,68,CD,1547326230,99,-2.95,25.92,294.06,0.3
Mabaruma,0,GY,1547326230,69,8.2,-59.78,300.435,4.05
Sechura,0,PE,1547326231,60,-5.56,-80.82,300.71,7.9
Ostrovnoy,88,RU,1547326231,95,68.05,39.51,266.485,3.4
Cap Malheureux,40,MU,1547323200,78,-19.98,57.61,300.15,6.2
Misratah,92,LY,1547326231,100,32.38,15.09,284.985,8.15
Ruteng,0,ID,1547326231,92,-8.61,120.46,293.685,1.45
Eshowe,76,ZA,1547326232,86,-28.89,31.46,292.785,1.25
Kampong Thum,24,KH,1547326232,58,12.71,104.89,298.335,3.85
Varzea da Palma,8,BR,1547326232,40,-17.6,-44.73,305.31,2.1
Bonavista,20,CA,1547326032,100,48.65,-53.11,271.585,6.8
Lebu,0,ET,1547326232,50,8.96,38.73,274.96,1.2
Buala,12,SB,1547326232,98,-8.15,159.59,300.035,2.4
Gold Coast,75,AU,1547325000,94,-28,153.41,295.15,1
Araouane,12,ML,1547326233,22,18.9,-3.53,287.935,4.75
Papetoai,90,PF,1547325000,74,-17.5,-149.87,301.15,8.7
Tilichiki,0,RU,1547326121,61,60.47,166.1,248.06,1.3
Zyryanka,0,RU,1547326234,85,65.73,150.89,233.41,1
Aklavik,20,CA,1547323200,67,68.22,-135.01,243.15,3.6
North Bend,1,US,1547322960,64,43.41,-124.22,287.05,2.6
Comodoro Rivadavia,40,AR,1547323200,28,-45.87,-67.48,294.15,6.2
Harper,1,US,1547325300,47,30.3,-99.24,288.05,7.2
Colquechaca,48,BO,1547326234,78,-18.7,-66,285.36,1.05
Shaunavon,0,CA,1547326235,63,49.65,-108.41,277.31,3.9
Fort Frances,90,CA,1547322900,80,48.61,-93.4,267.05,4.1
Datong,0,CN,1547326235,52,40.09,113.3,254.235,1.15
Kinsale,75,IE,1547325000,93,51.71,-8.52,282.15,5.1
Lokosovo,48,RU,1547326236,87,61.13,74.84,252.085,5.45
Nouadhibou,0,MR,1547326236,63,20.93,-17.03,291.56,3.05
Izumo,40,JP,1547323200,80,35.37,132.75,274.15,2.6
Beian,75,NO,1547322600,100,63.66,9.57,274.15,3.1
Yerbogachen,12,RU,1547326236,47,61.28,108.01,246.185,1.2
Siuna,56,NI,1547326237,87,13.73,-84.78,297.535,1.3
Pemberton,0,AU,1547326237,88,-34.44,116.03,288.61,5.25
Wasilla,1,US,1547323080,82,61.58,-149.44,258.75,1.5
Munster,75,DE,1547324400,87,52.99,10.09,279.15,6.2
Charlestown,40,US,1547325300,47,41.38,-71.64,273.15,2.6
Broome,75,GB,1547324760,93,52.47,1.45,282.15,6.2
Torbay,90,CA,1547323200,100,47.66,-52.73,273.15,7.2
Segou,8,SN,1547326238,29,12.41,-12.29,297.71,3.45
Oriximina,48,BR,1547326239,71,-1.77,-55.87,302.435,1.45
Maraba,20,BR,1547323200,66,-5.35,-49.1,304.15,2.1
Lively,90,US,1547324100,67,33.6,-99.18,278.85,7.7
Ust-Kuyga,56,RU,1547326239,59,70,135.55,236.785,1.2
Snezhnogorsk,40,RU,1547325000,92,69.19,33.23,266.15,1
Prudentopolis,44,BR,1547326240,76,-25.21,-50.98,298.61,1.1
Kununurra,64,AU,1547325000,94,-15.77,128.74,298.15,1.5
Pokhara,0,NP,1547326240,65,28.21,83.99,274.41,1.5
Pori,0,FI,1547324400,92,61.49,21.79,266.15,1
Amuntai,92,ID,1547326240,98,-2.42,115.25,296.81,1.05
Grootfontein,0,NA,1547326241,16,-19.56,18.1,297.71,6.3
Carutapera,24,BR,1547326241,89,-1.2,-46.02,299.41,3
Sinnamary,20,GF,1547326125,93,5.38,-52.96,299.56,4.55
Ust-Omchug,68,RU,1547326241,38,61.13,149.63,240.385,1.15
Surt,92,LY,1547326241,100,31.21,16.59,284.485,10.45
Mnogovershinnyy,0,RU,1547326242,58,53.94,139.92,251.835,2.4
Bilibino,20,RU,1547326073,42,68.06,166.44,239.96,1
San Miguel,20,AR,1547323200,51,-34.54,-58.72,301.15,2.1
Chodavaram,0,IN,1547326243,95,17.44,81.78,289.96,1.3
Erdenet,0,MN,1547326243,41,49.03,104.04,246.485,1.15
Emerald,0,AU,1547323200,83,-23.53,148.16,295.15,1.5
Leh,56,IN,1547326244,59,34.16,77.58,250.21,0.55
Shelton,40,US,1547326080,100,47.22,-123.1,284.25,1.25
Parker,1,US,1547325300,68,39.52,-104.76,277.05,4.1
Vagay,88,RU,1547326244,81,57.94,69.02,258.785,6.35
Aswan,12,EG,1547326223,92,24.09,32.9,283.56,1.15
Myitkyina,0,MM,1547326245,88,25.38,97.4,283.81,1.05
Saint Marys,1,US,1547324100,46,41.43,-78.56,272.05,2.1
Takoradi,20,GH,1547326245,100,4.89,-1.75,301.36,2.9
Lata,92,IN,1547326246,100,30.78,78.62,273.535,0.7
Gimli,76,CA,1547326056,95,50.63,-96.99,265.41,3.15
Birao,0,CF,1547326246,38,10.3,22.78,294.985,4.1
Quelimane,68,MZ,1547326040,92,-17.88,36.89,298.535,2.95
Port Hardy,90,CA,1547323200,76,50.7,-127.42,282.15,8.7
Sveti Nikole,75,MK,1547325000,73,41.86,21.94,269.15,0.5
Moth,0,IN,1547326247,86,25.73,78.95,283.41,1.3
Saint-Joseph,0,FR,1547325000,80,43.56,6.97,281.15,2.1
Owando,12,CG,1547326184,92,-0.49,15.91,296.485,0.85
Rzhev,80,RU,1547326247,92,56.26,34.33,268.81,3.85
Sidi Ali,0,DZ,1547326247,88,36.1,0.42,273.96,1.15
Mwinilunga,64,ZM,1547326248,98,-11.73,24.43,290.835,2
Aksarka,64,RU,1547326248,77,66.56,67.8,258.06,7.95
Pogar,76,RU,1547326248,84,52.55,33.26,267.41,5.2
Anaconda,1,US,1547322780,76,46.13,-112.94,265.95,1.3
Lam Luk Ka,32,TH,1547325000,83,13.93,100.75,300.15,2.05
Gorontalo,24,ID,1547326249,97,0.54,123.06,296.11,0.9
Bhigvan,0,IN,1547326249,80,18.32,74.77,286.285,0.5
Bubaque,12,GW,1547326249,97,11.28,-15.83,299.835,4.35
Chaman,0,AF,1547326249,73,30.92,66.46,264.485,1.2
Grenada,90,US,1547324700,89,33.77,-89.81,285.35,4.1
Ketchikan,90,US,1547322960,95,55.34,-131.65,278.75,3.6
Nabire,24,ID,1547326250,99,-3.36,135.5,293.485,0.85
Graaff-Reinet,0,ZA,1547326250,45,-32.25,24.53,293.285,2.3
Port-Cartier,75,CA,1547323200,62,50.03,-66.88,268.15,4.6
Harer,1,US,1547324100,92,42.19,-111.17,267.15,1.5
Ishigaki,100,JP,1547326251,100,24.34,124.16,293.71,8.6
San Carlos de Bariloche,40,AR,1547323200,54,-41.13,-71.31,288.15,10.8
Rome,0,IT,1547324400,51,41.89,12.48,277.15,2.6
Scarborough,92,GB,1547322600,87,54.28,-0.41,284.15,5.7
Sioux Lookout,75,CA,1547323260,72,50.1,-91.92,264.15,2.1
Killybegs,75,IE,1547323200,93,54.63,-8.45,283.15,10.8
Port Hedland,56,AU,1547325000,94,-20.31,118.58,300.15,3.6
Terra Roxa,90,BR,1547323200,83,-20.79,-48.33,295.15,2.6
Camacha,40,PT,1547323200,72,33.08,-16.33,290.15,6.7
Bijie,92,CN,1547326252,95,27.3,105.3,275.485,1.5
Acajutla,0,SV,1547322600,35,13.59,-89.83,304.15,5.1
Kandrian,0,PG,1547326253,99,-6.21,149.55,297.56,1.2
Lom Sak,24,TH,1547326253,92,16.78,101.24,288.935,0.95
Sikasso,8,ML,1547326253,31,11.32,-5.68,296.06,3.75
Belem de Sao Francisco,0,BR,1547326254,29,-8.75,-38.97,304.91,3.65
Kerman,0,IR,1547323200,63,30.29,57.06,273.15,2.1
Buin,20,CL,1547323200,34,-33.73,-70.74,300.15,5.1
Viedma,76,AR,1547326137,30,-40.81,-62.99,299.785,3.55
Kostomuksha,68,RU,1547326254,76,64.59,30.6,270.81,3.95
Port Blair,80,IN,1547326255,98,11.67,92.75,301.56,5.2
Bay Roberts,90,CA,1547323200,79,47.58,-53.28,273.15,5.1
Tura,0,IN,1547326088,78,25.52,90.21,283.21,1.75
Mindelo,0,PT,1547323200,87,41.31,-8.72,279.15,2.1
Paamiut,92,GL,1547326255,90,61.99,-49.67,274.335,9.9
Halifax,75,CA,1547323200,66,44.65,-63.58,263.15,9.3
La Rinconada,88,PE,1547326256,100,-14.63,-69.45,279.31,1.6
Palmer,1,US,1547323080,86,61.6,-149.11,258.75,2.05
Myre,24,SE,1547324400,92,62.25,17.37,267.15,1.5
Jacareacanga,36,BR,1547326258,51,-6.22,-57.76,305.06,1.5
Zhigansk,44,RU,1547326028,63,66.77,123.37,243.535,4
Aden,24,YE,1547326174,100,12.79,45.03,297.86,5.9
Helena,1,US,1547322780,74,46.59,-112.04,270.95,1.5
Novyy Buyan,90,RU,1547325000,94,53.69,50.04,273.15,8
Ostrow Mazowiecka,88,PL,1547326259,93,52.8,21.9,272.96,4.35
Husavik,76,CA,1547326259,95,50.56,-96.99,265.41,3.15
Castelo Branco,0,PT,1547326259,84,39.82,-7.5,275.185,2.9
Mantua,20,IT,1547324400,92,45.16,10.79,273.15,2.1
Uray,76,RU,1547326260,74,60.13,64.8,259.86,5.05
Ugoofaaru,32,MV,1547326260,100,5.67,73,300.535,3.1
Queenstown,80,NZ,1547326150,64,-45.03,168.66,283.96,1.25
Kieta,56,PG,1547326260,100,-6.22,155.63,299.185,1.9
Zhicheng,0,CN,1547326261,84,35.04,112.59,266.985,2.65
Pangody,68,RU,1547326261,79,65.85,74.49,252.985,9.1
La Primavera,0,AR,1547323200,37,-32.92,-68.67,303.15,4.1
Marsh Harbour,36,BS,1547326262,100,26.54,-77.06,297.035,7.5
Vorobyevka,80,RU,1547326262,87,50.65,40.92,262.66,4.65
Sao Jose de Piranhas,88,BR,1547326262,35,-7.12,-38.5,303.935,1.3
Eusebio Ayala,40,PY,1547323200,52,-25.38,-56.96,306.15,4.1
Fairmont,90,US,1547325300,86,40.64,-97.59,271.05,6.2
Tabas,0,IR,1547323200,47,33.6,56.92,275.15,2.1
Chernyshevskiy,56,RU,1547326263,56,63.01,112.47,248.785,2.05
Sayat,0,TM,1547323200,80,38.78,63.88,277.15,8.2
Porto Alegre,90,BR,1547324820,83,-30.03,-51.23,298.15,5.7
Trairi,80,BR,1547326264,100,-3.28,-39.27,301.035,2.65
Craig,1,US,1547325300,90,40.52,-107.55,271.45,1.45
Eyl,64,SO,1547326264,98,7.98,49.82,296.11,7.95
Coahuayana,0,MX,1547326008,41,18.62,-100.35,300.535,1.4
Soure,0,PT,1547323200,87,40.06,-8.63,281.15,1.5
Biak,56,ID,1547326265,100,-0.91,122.88,298.16,0.8
Macusani,92,PE,1547326266,100,-14.07,-70.43,284.41,1.15
Singaraja,36,ID,1547326266,100,-8.11,115.08,295.46,0.3
Aloleng,0,PH,1547326266,100,16.13,119.78,296.285,3
Ballater,75,GB,1547324400,76,57.05,-3.04,284.15,6.2
Hobyo,56,SO,1547326267,84,5.35,48.53,297.36,7.55
Manitouwadge,20,CA,1547323200,55,49.12,-85.84,261.15,3.1
Zaysan,36,KZ,1547326267,70,47.47,84.87,258.085,1.2
Cortez,90,US,1547322780,75,37.35,-108.58,273.75,2.6
Mayor Pablo Lagerenza,64,PY,1547326268,76,-19.93,-60.77,302.66,3.3
Mgandu,92,TZ,1547326268,95,-5.96,34.11,290.785,2.5
Rantepao,88,ID,1547326268,100,-2.97,119.9,292.71,1.05
Asosa,0,ET,1547326269,48,10.07,34.53,287.16,1.15
Cairns,24,AU,1547325000,83,-16.92,145.77,297.15,4.1
Mezhdurechensk,48,RU,1547326269,79,53.69,88.07,254.41,1.05
Pital,36,CO,1547326269,87,2.27,-75.81,293.285,1.1
Do Gonbadan,0,IR,1547323200,93,30.36,50.8,280.15,0.7
Casper,1,US,1547322780,72,42.87,-106.31,273.15,6.2
Coquimbo,0,CL,1547323200,56,-29.95,-71.34,294.15,5.7
Shalakusha,44,RU,1547326270,88,62.23,40.26,268.285,3.4
Perth,90,GB,1547324400,87,56.4,-3.43,284.15,8.2
San Jose,12,PH,1547326001,91,15.79,120.99,290.435,0.8
Dingle,56,PH,1547326271,94,11,122.67,296.81,5.45
Ilhabela,44,BR,1547326271,100,-23.78,-45.36,299.61,4.1
Vestmanna,92,FO,1547324400,100,62.16,-7.17,279.15,0.5
Robertsport,24,LR,1547326271,100,6.75,-11.37,301.785,4.3
