City,Cloudiness,Country_code,Date,Humidity,Latitude,Longitude,Max_temp,Wind_speed
Cape Town,0,ZA,1547604000,82,-33.93,18.42,60.8,1.0
Tecoanapa,5,MX,1547603220,69,16.99,-99.26,80.6,1.5
Grand Gaube,40,MU,1547604000,88,-20.01,57.66,75.2,2.1
Rikitea,56,PF,1547606881,98,-23.12,-134.97,80.13200000000002,5.46
Albany,90,US,1547603820,65,42.65,-73.75,30.02000000000006,2.1
Dingle,44,PH,1547606582,76,11.0,122.67,78.78200000000001,7.71
Souillac,36,FR,1547604000,78,45.6,-0.6,35.6,1.41
Berdigestyakh,8,RU,1547606882,0,62.1,126.7,-39.747999999999976,2.16
Mount Isa,40,AU,1547604000,27,-20.73,139.49,98.6,2.1
Eydhafushi,24,MV,1547606882,100,5.1,73.07,81.842,4.56
Hilo,90,US,1547603580,53,19.71,-155.08,75.92000000000006,3.6
Qaanaaq,0,GL,1547606883,96,77.48,-69.36,-30.11799999999998,4.26
Aripuana,8,BR,1547606656,95,-9.17,-60.63,73.56200000000005,0.91
Atuona,80,PF,1547606883,100,-9.8,-139.03,80.85200000000007,7.56
Skelleftea,0,SE,1547605200,91,64.75,20.95,1.3999999999999986,2.1
Butaritari,80,KI,1547606884,100,3.07,172.79,84.00200000000008,8.21
Esperance,20,TT,1547604000,83,10.24,-61.45,77.0,2.76
Mataura,68,NZ,1547606884,59,-46.19,168.86,70.77200000000003,2.31
Otane,92,NZ,1547606884,100,-39.89,176.62,60.51200000000006,3.56
Krasnyy Yar,92,RU,1547606885,96,50.7,44.73,33.242,8.01
Haimen,32,CN,1547606885,84,31.87,121.18,41.07200000000004,4.11
Hualmay,92,PE,1547606885,91,-11.1,-77.61,68.61200000000005,2.66
Cabo San Lucas,40,MX,1547603040,73,22.89,-109.91,69.8,1.86
Oistins,40,BB,1547604000,78,13.07,-59.53,77.0,5.7
Gravelbourg,20,CA,1547606713,68,49.88,-106.56,10.562000000000058,2.96
New Norfolk,75,AU,1547604000,55,-42.78,147.06,66.2,6.7
Bredasdorp,92,ZA,1547604000,82,-34.53,20.04,68.0,4.1
Yamoussoukro,8,CI,1547606886,88,6.81,-5.27,75.45200000000008,3.21
Hasaki,20,JP,1547605800,37,35.73,140.83,50.0,4.1
Shurugwi,80,ZW,1547606887,87,-19.67,30.0,68.88200000000002,4.31
Yellowknife,20,CA,1547604000,74,62.45,-114.38,-27.399999999999956,3.6
Hermanus,0,ZA,1547606887,95,-34.42,19.24,56.01200000000006,2.86
Bluff,0,AU,1547606887,43,-23.58,149.07,93.542,2.56
East London,80,ZA,1547606888,100,-33.02,27.91,71.76200000000006,2.66
Lakatoro,76,VU,1547606888,95,-16.11,167.42,82.20200000000008,1.61
Kapaa,40,US,1547603760,60,22.08,-159.32,80.06000000000009,3.1
Punta Arenas,40,CL,1547604000,65,-53.16,-70.91,44.6,7.7
Lagoa,20,PT,1547604000,93,37.14,-8.45,46.4,3.1
Lata,88,IN,1547606889,70,30.78,78.62,35.40200000000008,1.01
Avarua,40,CK,1547604000,78,-21.21,-159.78,80.6,4.1
Poum,0,MK,1547606894,71,41.28,20.71,4.262000000000057,0.91
Constitucion,90,MX,1547603040,44,23.99,-104.67,59.0,2.6
Kasongo-Lunda,32,CD,1547606895,98,-6.48,16.82,67.35200000000007,1.06
Georgetown,75,GY,1547604000,88,6.8,-58.16,77.0,2.1
Salvador,40,BR,1547604000,74,-12.98,-38.48,82.4,4.1
Brae,92,GB,1547605200,100,60.4,-1.35,46.4,8.2
Fortuna,20,ES,1547604000,87,38.18,-1.13,48.2,2.6
Tuktoyaktuk,40,CA,1547604000,68,69.44,-133.03,-18.39999999999995,4.1
Cidreira,32,BR,1547606618,91,-30.17,-50.22,77.07200000000003,3.31
Granadilla de Abona,12,ES,1547605800,87,28.12,-16.58,60.8,0.5
Carnarvon,0,ZA,1547606896,57,-30.97,22.13,57.272000000000034,4.31
Fairbanks,1,US,1547603880,80,64.84,-147.72,-10.119999999999962,1.81
Russell,0,AR,1547604000,53,-33.01,-68.8,75.2,2.6
Airai,44,TL,1547606897,87,-8.93,125.41,79.68200000000002,0.71
Shelburne,90,CA,1547604180,92,44.08,-80.2,28.4,4.6
Port-Gentil,80,GA,1547606898,98,-0.72,8.78,79.95200000000008,1.76
Puerto Ayora,36,EC,1547606898,99,-0.74,-90.35,77.43200000000002,4.21
Manado,40,ID,1547604000,66,1.49,124.85,86.0,3.1
Husavik,0,CA,1547606898,70,50.56,-96.99,-5.727999999999966,5.11
Geraldton,75,CA,1547605020,77,49.72,-86.95,-2.199999999999946,7.2
Vao,88,EE,1547606899,83,59.1,26.19,24.15200000000008,5.01
Guiyang,76,CN,1547604000,80,26.58,106.71,33.8,2.0
Coahuayana,20,MX,1547606899,71,18.62,-100.35,60.602000000000075,0.91
Wonthaggi,0,AU,1547606899,46,-38.6,145.59,84.63200000000002,1.96
Carballo,92,ES,1547604000,87,43.21,-8.69,48.2,2.1
Ushuaia,75,AR,1547604000,70,-54.81,-68.31,42.8,9.8
Namibe,92,AO,1547606900,100,-15.19,12.15,71.67200000000004,2.16
Remontnoye,88,RU,1547605800,100,46.56,43.66,35.6,3.0
Uyuni,76,BO,1547606900,96,-20.46,-66.82,39.63200000000002,0.76
Mayumba,92,GA,1547606901,100,-3.44,10.65,78.78200000000001,1.11
Waingapu,88,ID,1547606901,97,-9.65,120.26,78.51200000000006,2.86
Aljezur,64,PT,1547606901,100,37.31,-8.8,51.332000000000015,1.06
Bonavista,92,CA,1547606901,99,48.65,-53.11,31.441999999999997,17.36
Cherskiy,80,RU,1547606901,44,68.75,161.3,-27.687999999999946,1.81
Liuhe,0,CN,1547606902,33,42.28,125.73,13.802000000000078,3.21
Ponta do Sol,0,BR,1547606902,74,-20.63,-46.0,67.71200000000006,0.96
Camacha,75,PT,1547604000,59,33.08,-16.33,60.8,4.1
Edeia,8,BR,1547606902,71,-17.34,-49.93,76.53200000000001,0.56
Mahebourg,40,MU,1547604000,88,-20.41,57.7,75.2,2.1
Mackay,90,CA,1547604060,92,53.65,-115.58,17.6,3.1
Saldanha,20,PT,1547606903,78,41.42,-6.55,23.702000000000076,1.06
Puerto Carreno,0,CO,1547604000,58,6.19,-67.49,84.2,1.0
Zhangjiakou,0,CN,1547606904,23,40.77,114.88,11.102000000000078,1.81
Lima,40,PE,1547604000,88,-12.06,-77.04,71.6,6.2
Norman Wells,75,CA,1547604000,69,65.28,-126.83,-9.399999999999949,3.6
Yulara,0,AU,1547604000,13,-25.24,130.99,107.6,5.7
Skjervoy,56,NO,1547606904,100,70.03,20.97,26.582000000000015,4.01
Gazli,0,UZ,1547606910,78,40.13,63.45,28.832000000000015,1.31
Hofn,20,IS,1547606616,100,64.25,-15.21,31.082000000000015,11.81
Hamilton,90,CA,1547604000,86,43.26,-79.87,30.2,7.2
Tasiilaq,20,GL,1547603400,46,65.61,-37.64,8.600000000000001,1.5
Plouzane,90,FR,1547604000,81,48.38,-4.62,48.2,6.2
Rakke,88,EE,1547606911,85,58.99,26.24,23.522000000000038,5.31
Cockburn Town,0,TC,1547606799,100,21.46,-71.14,78.06200000000005,2.86
Busselton,0,AU,1547606914,96,-33.64,115.35,68.88200000000002,4.31
Del Rio,90,US,1547604960,93,29.36,-100.9,48.2,3.1
Whangamata,36,NZ,1547606914,83,-37.21,175.87,71.40200000000007,1.56
Bubaque,0,GW,1547606915,100,11.28,-15.83,77.97200000000004,4.81
Port Lincoln,92,AU,1547606915,76,-34.72,135.86,73.292,7.91
Adrar,0,DZ,1547606915,70,27.87,-0.29,33.78200000000002,1.31
San Quintin,0,PH,1547606679,61,17.54,120.52,79.77200000000003,1.46
Tiksi,0,RU,1547606915,0,71.64,128.87,-47.847999999999985,1.31
Ahipara,48,NZ,1547606644,74,-35.17,173.16,71.13200000000002,7.86
Juneau,90,US,1547605860,100,58.3,-134.42,39.92000000000006,1.61
Dikson,68,RU,1547606916,92,73.51,80.55,8.852000000000078,3.56
Goundi,0,TD,1547606916,35,9.36,17.37,59.702000000000076,3.71
Saint George,20,GR,1547603400,57,39.45,22.34,32.0,3.1
Vaini,0,IN,1547604000,55,15.34,74.49,62.6,1.0
Fuzhou,90,CN,1547604000,71,26.08,119.3,50.0,11.0
Lang Suan,0,TH,1547604000,83,9.95,99.07,80.6,0.51
Rapar,0,IN,1547606917,76,23.57,70.65,51.602000000000075,1.86
Nishihara,40,JP,1547605800,43,35.74,139.53,50.0,6.7
Talnakh,68,RU,1547606918,80,69.49,88.39,5.702000000000076,1.51
Konya,75,TR,1547603400,80,37.87,32.48,30.2,9.8
North Bend,90,US,1547603760,70,43.41,-124.22,48.92000000000006,2.6
Upernavik,0,GL,1547606919,100,72.79,-56.15,-6.447999999999972,4.31
Sayan,0,YE,1547606919,88,15.88,43.46,56.372000000000035,0.41
Karlskrona,32,SE,1547605200,100,56.16,15.59,33.8,0.5
Tolaga Bay,64,NZ,1547606919,95,-38.37,178.3,64.11200000000005,2.71
Saravan,75,AM,1547605800,64,39.72,45.65,37.4,5.1
Pevek,76,RU,1547606920,95,69.7,170.27,-7.887999999999941,8.46
Igarka,88,RU,1547606920,82,67.47,86.57,7.682000000000016,6.66
Christchurch,0,NZ,1547605800,59,-43.53,172.64,66.2,9.3
Takoradi,8,GH,1547606920,100,4.89,-1.75,81.30200000000008,3.46
Mahibadhoo,36,MV,1547606921,99,3.78,72.97,82.11200000000005,6.16
Dhidhdhoo,20,MV,1547606921,100,6.88,73.1,81.93200000000002,4.01
Mpongwe,92,ZM,1547606921,97,-13.51,28.16,63.662000000000056,1.76
Shitkino,56,RU,1547606921,68,56.37,98.35,-10.137999999999941,1.06
Riyadh,0,SA,1547604000,55,24.63,46.72,62.6,2.6
Poddorye,88,RU,1547606922,88,57.47,31.12,21.722000000000037,5.11
Mokrous,92,RU,1547606927,95,51.24,47.51,31.262000000000057,7.51
Vila Velha,40,BR,1547604000,83,-3.71,-38.6,78.8,2.1
Barrow,0,AR,1547606928,55,-38.31,-60.23,73.74199999999999,5.81
Touros,75,BR,1547605560,94,-5.2,-35.46,77.0,4.1
Chuy,8,UY,1547606928,96,-33.69,-53.46,71.31200000000005,8.46
Imbituba,75,BR,1547604000,88,-28.24,-48.67,77.0,2.6
Vangaindrano,100,MG,1547606928,100,-23.35,47.6,73.47200000000004,1.41
Castro,40,CL,1547604000,93,-42.48,-73.76,48.2,2.11
Lagunas,68,PE,1547606929,94,-5.23,-75.68,73.65200000000007,1.66
Angra dos Reis,0,BR,1547604000,78,-23.01,-44.32,78.8,3.1
Waiouru,92,NZ,1547606929,100,-39.48,175.67,58.71200000000006,3.36
Matara,68,PE,1547606930,92,-13.74,-72.9,45.30200000000008,0.76
Arraial do Cabo,8,BR,1547606756,84,-22.97,-42.02,77.792,8.01
Jamestown,64,AU,1547606930,35,-33.21,138.6,98.31200000000005,3.91
Namatanai,12,PG,1547606930,90,-3.66,152.44,87.15200000000007,3.86
Xai-Xai,92,MZ,1547606644,100,-25.04,33.64,74.642,1.41
Whitehorse,90,CA,1547604000,92,60.72,-135.06,12.2,1.0
Monforte de Lemos,12,ES,1547606931,85,42.52,-7.51,28.472000000000037,0.96
Nanortalik,92,GL,1547606931,95,60.14,-45.24,29.82200000000004,6.61
Guerrero Negro,76,MX,1547606932,95,27.97,-114.04,62.582000000000015,3.01
Svodin,40,SK,1547603100,69,47.91,18.5,39.2,7.7
Gat,0,SN,1547604000,82,14.69,-16.54,66.2,6.2
Taoudenni,0,ML,1547606932,57,22.68,-3.98,36.391999999999996,2.21
College,1,US,1547603880,80,64.86,-147.8,1.0400000000000205,1.81
Mar del Plata,44,AR,1547606933,40,-46.43,-67.52,63.30200000000008,7.21
Provideniya,90,RU,1547605800,93,64.42,-173.23,32.0,7.0
Ryotsu,75,JP,1547604000,64,38.08,138.43,37.4,10.8
Pringsewu,88,ID,1547606933,82,-5.36,104.98,81.57200000000003,1.31
Jinchang,0,CN,1547606725,58,38.52,102.19,8.582000000000015,1.71
Kodiak,90,US,1547606100,77,39.95,-94.76,32.0,4.1
Fonte Boa,12,BR,1547606934,98,-2.51,-66.09,73.20200000000008,1.16
Purpe,64,RU,1547606932,85,64.48,76.69,7.052000000000078,5.26
San Cristobal,40,EC,1547604000,100,-0.39,-78.55,55.4,1.5
Chernaya Kholunitsa,80,RU,1547606935,91,58.85,51.72,27.302000000000078,5.56
Hithadhoo,36,MV,1547606935,100,-0.6,73.08,80.58200000000002,1.61
Ganzhou,92,CN,1547606935,91,25.86,114.93,40.80200000000008,3.21
Khatanga,56,RU,1547606935,74,71.98,102.47,-11.487999999999943,6.01
Sao Filipe,0,CV,1547606935,99,14.9,-24.5,71.58200000000002,6.26
Loandjili,40,CG,1547604000,94,-4.77,11.87,78.8,1.0
Alta Floresta,44,BR,1547606936,97,-9.87,-56.08,73.56200000000005,0.86
Pokosnoye,0,RU,1547606936,39,55.53,101.05,-13.377999999999965,1.11
Banjar,92,ID,1547606936,86,-7.37,108.54,78.78200000000001,1.66
Kenai,1,US,1547603760,68,60.55,-151.26,24.98000000000004,2.1
Ouadda,20,CF,1547606937,75,8.07,22.4,70.41200000000006,2.46
Lebu,0,ET,1547601000,69,8.96,38.73,51.8,2.1
Chimoio,40,MZ,1547604000,88,-19.11,33.48,71.6,2.51
Grindavik,20,IS,1547605800,73,63.84,-22.43,26.6,6.2
Mocuba,24,MZ,1547606943,91,-16.84,36.99,74.10200000000007,1.31
Elbistan,92,TR,1547606943,90,38.2,37.19,31.532000000000018,4.41
Kalemie,56,CD,1547606943,100,-5.95,29.2,72.75200000000008,1.76
Camocim,80,BR,1547606943,100,-2.9,-40.84,72.392,1.51
Hereford,92,GB,1547606649,94,52.06,-2.72,46.832000000000015,7.81
Broome,92,GB,1547605200,87,52.47,1.45,46.58000000000004,6.2
Urucara,88,BR,1547606944,80,-2.54,-57.76,79.50200000000008,1.41
Severo-Kurilsk,68,RU,1547606944,100,50.68,156.12,28.472000000000037,7.01
Sinnamary,92,GF,1547606965,98,5.38,-52.96,78.60200000000007,5.41
Olinda,90,EC,1547604000,74,-2.03,-79.75,80.6,1.0
Ambilobe,44,MG,1547606966,87,-13.19,49.05,67.80200000000008,1.21
Faya,0,SA,1547604000,39,18.39,42.45,51.8,1.21
Hobart,75,AU,1547604000,55,-42.88,147.33,66.2,6.7
Shaowu,100,CN,1547606969,100,27.34,117.49,40.622000000000035,1.16
Vila Franca do Campo,40,PT,1547604000,87,37.72,-25.43,60.8,3.1
Vanimo,32,PG,1547606970,98,-2.67,141.3,83.55200000000008,7.46
Ponta Delgada,40,PT,1547604000,87,37.73,-25.67,60.8,3.1
San Carlos de Bariloche,75,AR,1547604000,66,-41.13,-71.31,53.6,9.3
Buritis,36,BR,1547606970,78,-15.62,-46.42,72.12200000000004,1.06
Sena Madureira,24,BR,1547606971,96,-9.07,-68.66,74.642,0.91
Ribeira Grande,0,PT,1547606971,96,38.52,-28.7,61.86200000000006,3.06
Chukhloma,76,RU,1547606971,86,58.76,42.68,23.972000000000037,6.16
Dzaoudzi,0,YT,1547605800,83,-12.79,45.27,78.8,1.5
Ucar,40,AZ,1547604000,92,40.51,47.65,26.6,1.5
Robertsport,0,LR,1547606972,98,6.75,-11.37,84.00200000000008,4.91
Port Alfred,92,ZA,1547606972,100,-33.59,26.89,68.88200000000002,3.31
Puerto Suarez,12,BO,1547606973,73,-18.96,-57.8,80.85200000000007,1.56
Henties Bay,48,NA,1547606973,97,-22.12,14.28,63.30200000000008,3.91
Temirtau,75,KZ,1547605800,92,50.05,72.96,15.8,3.0
Sorland,48,NO,1547606973,100,67.67,12.69,31.172000000000036,0.76
Narsaq,80,GL,1547603400,79,60.91,-46.05,26.6,1.5
Hirara,75,JP,1547604000,100,24.8,125.28,66.2,4.6
Usagara,92,TZ,1547606974,100,-2.68,32.99,65.73200000000001,4.06
Paamiut,80,GL,1547606974,100,61.99,-49.67,29.372000000000035,13.01
Eureka,90,US,1547606100,100,40.8,-124.16,55.94000000000002,4.1
Ancud,40,CL,1547604000,93,-41.87,-73.83,48.2,2.31
Rock Springs,75,US,1547603640,79,41.59,-109.2,6.080000000000041,0.96
Luderitz,0,NA,1547606975,77,-26.65,15.16,61.412000000000056,2.31
Samoylovka,92,RU,1547606975,95,51.19,43.71,33.51200000000006,7.41
Tigil,8,RU,1547606975,74,57.8,158.67,-11.217999999999982,1.41
Nsanje,76,MZ,1547606975,69,-16.92,35.26,78.78200000000001,1.51
Tilichiki,0,RU,1547606976,33,60.47,166.1,-22.467999999999982,2.91
Leningradskiy,92,RU,1547606981,78,69.38,178.42,-0.6879999999999455,11.66
Xining,0,CN,1547606981,20,36.62,101.77,18.662000000000056,2.76
Lasa,90,CY,1547604000,72,34.92,32.53,59.0,10.3
Chokurdakh,8,RU,1547606982,0,70.62,147.9,-44.33799999999994,1.31
Hami,44,CN,1547606982,68,42.84,93.51,8.762000000000057,1.41
Port Macquarie,0,AU,1547604000,49,-31.43,152.91,91.4,6.7
Tomatlan,88,MX,1547606982,86,19.93,-105.25,72.21200000000006,0.91
Imeni Poliny Osipenko,44,RU,1547606982,62,52.42,136.49,-3.117999999999981,1.91
Ostrovnoy,80,RU,1547606691,75,68.05,39.51,12.722000000000037,2.31
Kaitangata,80,NZ,1547606983,67,-46.28,169.85,71.58200000000002,3.96
Thompson,5,CA,1547604000,74,55.74,-97.86,-23.799999999999955,2.6
Longyearbyen,20,NO,1547603400,70,78.22,15.63,1.3999999999999986,2.1
Buraydah,40,SA,1547604000,81,26.33,43.97,53.6,1.5
Opunake,0,NZ,1547606984,92,-39.45,173.86,65.10200000000007,9.06
Bathsheba,40,BB,1547604000,78,13.22,-59.52,77.0,5.7
Batu,20,ID,1547605800,78,-7.87,112.53,82.4,1.5
Sept-Iles,5,CA,1547604000,70,50.2,-66.38,-3.9999999999999503,2.6
Tiarei,20,PF,1547605800,66,-17.53,-149.33,87.8,5.7
Xingyi,80,CN,1547606985,94,24.19,102.82,47.372000000000035,1.46
Iquitos,75,PE,1547604000,94,-3.75,-73.25,75.2,1.41
Saint-Augustin,24,FR,1547604000,92,44.83,-0.61,32.0,1.36
Iskateley,88,RU,1547606985,83,67.68,53.15,14.522000000000038,1.56
Were Ilu,0,ET,1547606986,75,10.6,39.43,29.10200000000008,0.41
Greenwood,0,US,1547605200,82,32.03,-101.9,48.38000000000004,2.6
Inhambane,80,MZ,1547606986,93,-23.87,35.38,81.66200000000006,6.66
Vavoua,0,CI,1547606986,83,7.38,-6.48,72.21200000000006,1.56
Iseyin,32,NG,1547606987,89,7.97,3.6,73.47200000000004,1.26
Samarinda,76,ID,1547606987,79,-0.5,117.14,83.192,1.21
Asadabad,0,IR,1547603400,86,34.78,48.12,26.6,1.61
Mezen,92,RU,1547606987,92,65.85,44.24,22.802000000000078,1.96
Saint-Pierre,90,FR,1547604000,80,48.95,4.24,42.8,3.1
Nikolskoye,75,RU,1547605800,86,59.7,30.79,26.6,3.0
Marmande,0,FR,1547604000,100,44.5,0.16,28.4,2.6
Saint-Philippe,90,CA,1547606100,85,45.36,-73.48,27.5,3.1
Sankt Ingbert,75,DE,1547605200,69,49.28,7.12,40.64000000000002,5.1
Kununurra,0,AU,1547604000,59,-15.77,128.74,91.4,3.1
Gunjur,0,GM,1547604000,63,13.18,-16.76,66.2,3.6
Tuatapere,100,NZ,1547606989,60,-46.13,167.69,68.342,4.21
Seoul,75,KR,1547605800,44,37.57,126.98,24.8,1.5
Toora-Khem,12,RU,1547606990,29,52.47,96.11,-22.82799999999996,0.86
Vardo,1,US,1547605200,84,39.62,-77.74,32.0,4.1
Port Hardy,5,CA,1547604000,84,50.7,-127.42,39.2,3.1
Port Blair,20,IN,1547606995,100,11.67,92.75,81.57200000000003,7.61
Copiapo,90,CL,1547604000,77,-27.37,-70.33,62.6,3.1
Morondava,88,MG,1547606996,92,-20.3,44.28,81.21200000000006,1.66
Otofuke,40,JP,1547604000,49,43.02,143.2,26.6,6.7
Clyde River,1,CA,1547606340,74,70.47,-68.59,-27.399999999999956,3.1
Thul,12,PK,1547606997,86,28.24,68.77,50.97200000000004,2.56
Broken Hill,8,AU,1547604000,8,-31.97,141.45,111.2,9.3
Marawi,20,PH,1547606997,56,8.0,124.29,81.21200000000006,1.51
Torbay,90,CA,1547604000,100,47.66,-52.73,30.2,11.8
Padang,40,ID,1547605800,78,-0.92,100.36,80.6,2.6
Vostok,44,RU,1547606997,51,46.45,135.83,-0.3279999999999603,1.96
Faanui,92,PF,1547606998,100,-16.48,-151.75,84.27200000000003,6.16
Aksarka,44,RU,1547606998,73,66.56,67.8,-2.757999999999953,3.21
Okhotsk,64,RU,1547606998,99,59.36,143.24,-5.547999999999973,3.06
Zhezkazgan,90,KZ,1547605800,92,47.8,67.71,24.8,2.0
Chinsali,92,ZM,1547606999,98,-10.55,32.07,62.67200000000004,1.61
Sitka,0,US,1547606999,73,37.17,-99.65,31.082000000000015,1.76
Tambilil,40,PH,1547604000,75,5.96,124.67,89.6,5.1
Ajdabiya,48,LY,1547606999,77,30.75,20.22,47.73200000000001,3.26
Nemuro,75,JP,1547604420,68,43.32,145.57,30.2,4.1
Virginia Beach,1,US,1547605800,92,36.85,-75.98,33.98000000000004,1.31
Hay River,90,CA,1547604000,75,60.82,-115.79,-12.99999999999995,2.1
Saskylakh,20,RU,1547607000,0,71.97,114.09,-32.187999999999946,8.16
Turayf,0,SA,1547604000,86,31.68,38.65,33.8,2.1
Prince Rupert,1,CA,1547604000,93,54.32,-130.32,39.2,3.1
Khani,75,GE,1547605800,34,41.96,42.96,53.6,7.7
Bonthe,0,SL,1547607001,84,7.53,-12.5,79.68200000000002,2.66
Prainha,56,BR,1547607001,99,-1.8,-53.48,74.642,1.61
Klaksvik,92,FO,1547605200,100,62.23,-6.59,35.6,2.6
Pitimbu,0,BR,1547604000,88,-7.47,-34.81,77.0,2.6
Launceston,12,AU,1547604000,39,-41.43,147.14,80.6,8.2
Farafangana,24,MG,1547607002,100,-22.82,47.83,79.41200000000006,1.41
Antofagasta,20,CL,1547604000,72,-23.65,-70.4,64.4,3.6
Puerto Narino,75,CO,1547604000,100,-3.77,-70.38,77.0,2.1
Hambantota,75,LK,1547604600,100,6.12,81.12,77.0,1.0
Huarmey,36,PE,1547607003,83,-10.07,-78.15,67.80200000000008,1.76
Napier,92,NZ,1547606954,100,-39.49,176.92,64.83200000000002,5.01
Gasa,0,BT,1547607004,21,27.91,89.73,-12.477999999999966,0.26
Zlonice,75,CZ,1547604000,86,50.29,14.09,39.2,7.7
Manosque,0,FR,1547604000,69,43.83,5.78,35.6,1.0
Bandarbeyla,88,SO,1547607004,100,9.49,50.81,74.37200000000004,5.81
Port Hedland,0,AU,1547604000,35,-20.31,118.58,98.6,3.1
Acapulco,5,MX,1547603220,69,16.86,-99.88,80.6,1.5
Bambanglipuro,92,ID,1547607005,90,-7.95,110.28,79.05200000000008,3.46
Loralai,68,PK,1547607010,76,30.37,68.6,27.57200000000004,1.56
Hervey Bay,32,AU,1547604000,43,-25.3,152.85,89.6,5.7
Khandyga,8,RU,1547607011,0,62.65,135.58,-45.23799999999994,1.06
Dudinka,64,RU,1547607011,82,69.41,86.18,3.2720000000000375,4.01
Udachnyy,76,RU,1547606933,55,66.42,112.4,-19.94799999999998,3.41
Itoman,75,JP,1547606160,72,26.12,127.67,64.4,4.6
Port Elizabeth,1,US,1547603760,81,39.31,-74.98,30.02000000000006,1.91
Nokaneng,12,BW,1547607012,74,-19.66,22.19,71.58200000000002,4.61
Coihaique,0,CL,1547604000,62,-45.58,-72.07,51.8,3.1
Yaan,0,NG,1547607012,72,7.38,8.57,67.892,1.61
Nakhon Phanom,0,LA,1547604000,61,17.4,104.79,77.0,3.6
Pierre,90,US,1547605260,84,44.37,-100.35,26.960000000000083,4.1
Richards Bay,100,ZA,1547607013,100,-28.77,32.06,73.11200000000005,4.46
Ayorou,0,NE,1547607013,37,14.73,0.92,54.57200000000004,1.61
New Plymouth,0,NZ,1547607013,84,-39.06,174.08,68.70200000000008,8.41
Mecca,48,SA,1547606881,85,21.43,39.83,63.391999999999996,1.16
Portland,75,US,1547603760,61,45.52,-122.67,42.08000000000004,7.2
Anadyr,90,RU,1547605800,76,64.73,177.51,-5.799999999999947,6.0
Ler,0,NO,1547605200,85,63.2,10.3,23.0,3.6
Atambua,24,ID,1547607014,99,-9.11,124.89,82.38200000000002,2.86
Lerwick,44,GB,1547605200,81,60.15,-1.15,46.4,14.9
Naryan-Mar,80,RU,1547607015,88,67.67,53.09,12.991999999999997,1.21
Shafranovo,88,RU,1547607015,87,53.97,54.77,19.741999999999997,5.66
Tendukheda,0,IN,1547605800,54,23.4,79.54,53.6,1.31
San Felipe,0,CL,1547606887,73,-32.75,-70.73,55.022000000000034,0.26
Majene,92,ID,1547607016,100,-3.54,118.97,78.60200000000007,7.41
Puro,76,PH,1547607016,76,13.13,123.76,79.32200000000003,7.36
Zyryanka,0,RU,1547607016,0,65.73,150.89,-36.95799999999994,1.16
Griffith,0,AU,1547604000,12,-34.29,146.06,109.4,2.1
Kuruman,0,ZA,1547607017,23,-27.46,23.43,63.03200000000002,4.21
Porbandar,0,IN,1547605800,62,21.64,69.61,57.2,1.0
Zhangye,0,CN,1547606738,70,38.94,100.46,16.952000000000076,3.56
Beira,92,ES,1547604000,87,43.2,-8.36,48.2,2.1
Koygorodok,92,RU,1547607017,84,60.44,51.01,22.802000000000078,2.96
Prince George,90,CA,1547605020,92,53.92,-122.75,21.2,1.5
Holoby,80,UA,1547607018,92,51.09,25.02,26.312000000000058,1.31
Nouadhibou,44,MR,1547607018,66,20.93,-17.03,62.582000000000015,6.41
Sisimiut,76,GL,1547607018,100,66.94,-53.67,-5.547999999999973,1.01
Moose Factory,90,CA,1547604720,92,51.26,-80.61,14.0,1.21
Tabuk,0,PH,1547607019,60,17.41,121.44,74.28200000000001,1.16
Zlotoryja,75,PL,1547605800,93,51.13,15.92,39.2,8.7
Labuhan,92,ID,1547607019,90,-2.54,115.51,77.88200000000002,1.31
Asosa,0,ET,1547607019,82,10.07,34.53,53.76200000000006,1.41
Yeppoon,40,AU,1547605800,48,-23.13,150.74,87.8,2.6
Don Sak,20,TH,1547605800,79,9.32,99.69,84.2,2.6
Haines Junction,68,CA,1547607025,70,60.75,-137.51,-1.227999999999966,1.01
Ixtapa,90,MX,1547603040,88,20.71,-105.21,78.8,1.0
Tanout,0,NE,1547607026,66,14.97,8.88,46.832000000000015,3.66
Wewak,36,PG,1547607026,100,-3.55,143.63,83.82200000000003,1.76
Nuuk,80,GL,1547603400,92,64.17,-51.74,21.2,6.2
Tabas,0,IR,1547604000,79,33.6,56.92,44.6,1.0
Kayerkan,80,RU,1547607030,81,69.35,87.76,5.7919999999999945,2.71
Shitanjing,64,CN,1547607030,51,39.23,106.34,12.452000000000076,1.26
Sistranda,20,NO,1547603400,85,63.73,8.83,23.0,8.2
Celle,75,DE,1547605200,93,52.62,10.08,44.6,6.2
Vanavara,64,RU,1547607030,84,60.35,102.28,2.282000000000018,2.36
Hakkari,90,FI,1547605200,85,61.34,23.75,21.2,2.6
Lavrentiya,88,RU,1547607031,94,65.58,-170.99,33.062000000000054,7.36
Braniewo,56,PL,1547607008,100,54.38,19.82,35.76200000000006,6.11
Guarumal,90,EC,1547604000,74,-1.88,-79.65,80.6,1.0
Kudahuvadhoo,92,MV,1547607031,100,2.67,72.89,77.52200000000003,3.41
Puerto Escondido,0,MX,1547607032,100,15.86,-97.07,81.75200000000008,2.41
Adendron,20,GR,1547605200,47,40.67,22.6,37.4,3.1
Cochrane,8,CL,1547607032,60,-47.25,-72.57,43.772000000000034,2.71
Leshukonskoye,80,RU,1547607032,80,64.9,45.76,22.891999999999996,2.66
Batemans Bay,0,AU,1547607032,43,-35.71,150.18,90.392,1.81
Aitape,20,PG,1547607033,79,-3.15,142.36,86.07200000000003,4.76
Ilulissat,56,GL,1547603400,71,69.22,-51.1,8.600000000000001,0.5
Bullhead City,90,US,1547605800,93,35.15,-114.57,55.4,2.1
Eyl,92,SO,1547607033,99,7.98,49.82,73.65200000000007,4.46
Yumen,20,CN,1547607033,71,40.29,97.04,2.8220000000000383,1.96
Agadez,0,NE,1547607034,49,16.97,7.99,47.28200000000002,2.86
Saint Anthony,90,US,1547603760,74,43.97,-111.68,24.98000000000004,1.5
Vestmanna,92,FO,1547605200,100,62.16,-7.17,35.6,2.6
Smithers,75,CA,1547604000,87,54.78,-127.17,32.0,1.0
Estremoz,56,PT,1547607034,84,38.84,-7.59,31.891999999999996,1.31
Peniche,75,PT,1547604000,93,39.36,-9.38,51.8,1.0
Lufilufi,75,WS,1547604000,63,-13.87,-171.6,91.4,3.6
Aukra,48,NO,1547605200,92,62.79,6.92,30.2,2.1
Goranboy,75,AZ,1547605800,56,40.61,46.79,41.0,4.1
Malartic,90,CA,1547604000,92,48.14,-78.13,21.2,4.6
Pimentel,68,BR,1547607035,98,-3.7,-45.5,72.03200000000001,1.21
Ilebo,76,CD,1547607036,92,-4.33,20.59,72.21200000000006,1.11
Kavaratti,0,IN,1547607036,100,10.57,72.64,82.20200000000008,5.01
Rafai,56,CF,1547607036,100,4.95,23.92,67.35200000000007,2.26
Daru,8,SL,1547607036,68,7.99,-10.85,76.71200000000006,1.71
Billings,75,US,1547603580,75,45.79,-108.5,30.920000000000062,2.6
Batagay,0,RU,1547607037,0,67.65,134.64,-69.80799999999995,1.21
Aklavik,40,CA,1547604000,68,68.22,-135.01,-14.799999999999947,3.6
Banamba,0,ML,1547607040,62,13.55,-7.45,59.97200000000004,1.26
Mango,75,IT,1547605200,71,44.69,8.15,55.4,5.1
Komsomolskiy,76,RU,1547607045,79,67.55,63.78,10.202000000000076,2.96
Te Anau,80,NZ,1547607046,44,-45.41,167.72,70.77200000000003,4.56
Longhua,36,CN,1547607046,100,29.21,106.21,43.50200000000008,1.76
Hwange,36,ZW,1547607046,71,-18.35,26.5,71.31200000000005,2.51
Ebebiyin,92,GQ,1547607046,95,2.15,11.34,72.93200000000002,1.06
Half Moon Bay,90,US,1547606400,93,37.46,-122.43,55.94000000000002,5.1
Jutai,92,BR,1547607047,100,-1.71,-47.89,72.75200000000008,0.61
Pangnirtung,64,CA,1547607047,46,66.15,-65.72,-16.167999999999985,2.71
Los Llanos de Aridane,0,ES,1547605800,67,28.66,-17.92,60.8,4.1
Petropavlovsk-Kamchatskiy,20,RU,1547605800,55,53.05,158.65,8.600000000000001,3.0
Sabang,88,PH,1547607048,85,13.72,123.58,78.692,7.61
Bolpur,0,IN,1547607048,66,23.66,87.7,57.812000000000054,3.96
Bud,48,NO,1547605200,92,62.91,6.91,30.2,2.1
Murashi,80,RU,1547607048,88,59.4,48.97,26.312000000000058,3.26
Kulhudhuffushi,20,MV,1547607049,100,6.62,73.07,81.93200000000002,4.01
Boditi,44,ET,1547607049,64,6.95,37.86,47.73200000000001,1.56
Maamba,24,ZM,1547607049,81,-17.36,27.22,69.42200000000004,2.06
Oksovskiy,80,RU,1547607049,84,62.61,39.91,27.482000000000017,3.91
Isangel,80,VU,1547607049,100,-19.55,169.27,78.87200000000004,5.01
Hokitika,0,NZ,1547607050,81,-42.72,170.96,66.81200000000005,2.91
Beringovskiy,80,RU,1547607050,97,63.05,179.32,5.702000000000076,10.86
Pochutla,5,MX,1547603340,78,15.74,-96.47,78.8,2.96
Norrtalje,0,SE,1547605200,85,59.76,18.7,17.6,1.5
Abilene,1,US,1547606100,91,32.45,-99.73,45.320000000000064,5.1
Kabinda,48,CD,1547607051,92,-6.14,24.49,65.28200000000001,1.31
Chimbote,48,PE,1547607051,95,-9.08,-78.59,69.06200000000005,2.76
Pisco,76,PE,1547604000,83,-13.71,-76.2,69.8,7.2
Cayenne,90,GF,1547605800,83,4.94,-52.33,78.8,1.5
Kushiro,20,JP,1547604000,46,43.11,144.15,30.2,8.2
Glenwood Springs,90,US,1547604720,86,39.55,-107.33,33.98000000000004,3.6
Talaya,75,RU,1547605800,85,55.79,84.89,17.6,2.0
Palmer,1,US,1547603880,87,61.6,-149.11,19.94000000000002,1.76
Iqaluit,90,CA,1547604000,76,63.75,-68.52,-3.9999999999999503,2.6
Fredericksburg,1,US,1547606100,100,38.3,-77.46,28.04000000000002,2.26
Nebbi,92,UG,1547607053,65,2.48,31.09,70.95200000000008,1.46
Rocha,76,UY,1547606799,98,-34.48,-54.34,67.62200000000004,5.61
Kloulklubed,90,PW,1547607000,88,7.04,134.26,78.8,7.2
Ayagoz,92,KZ,1547607054,89,47.96,80.43,25.772000000000038,7.71
Beloha,80,MG,1547607054,84,-25.17,45.06,77.792,1.56
Roche-la-Moliere,0,FR,1547604000,84,45.43,4.32,32.0,5.1
Avera,1,US,1547606100,84,33.19,-82.53,42.08000000000004,1.5
Hecelchakan,75,MX,1547603040,64,20.17,-90.13,75.2,5.1
Aswan,0,EG,1547607028,93,24.09,32.9,37.38200000000002,1.51
Koumac,80,NC,1547607060,71,-20.56,164.28,82.83200000000002,1.71
Havre,1,US,1547603580,91,48.55,-109.68,21.920000000000062,6.7
Dunhua,12,CN,1547607060,34,43.37,128.23,12.90200000000008,6.41
Nueva Germania,12,PY,1547607061,67,-23.91,-56.7,83.55200000000008,2.31
Townsville,20,AU,1547605800,55,-19.26,146.82,87.8,7.2
Kanniyakumari,8,IN,1547607061,100,8.08,77.57,76.71200000000006,11.56
El Viejo,0,NI,1547607061,50,12.66,-87.17,81.30200000000008,6.11
Lircay,80,PE,1547607062,100,-12.99,-74.72,37.38200000000002,1.16
Wawa,8,NG,1547607062,36,9.9,4.41,64.20200000000008,3.31
Pizarro,76,CO,1547607062,97,4.95,-77.37,78.78200000000001,1.76
Kavieng,56,PG,1547607006,100,-2.57,150.8,81.842,3.11
Fukue,40,JP,1547605800,61,35.03,136.69,48.2,10.3
Huaibei,8,CN,1547607063,54,33.96,116.79,28.202000000000076,2.16
Victoria,75,BN,1547604000,79,5.28,115.24,86.0,3.1
Meulaboh,20,ID,1547607000,100,4.14,96.13,80.31200000000005,1.66
Nakamura,40,JP,1547605800,61,35.17,136.87,48.2,10.3
Kardasova Recice,100,CZ,1547607063,93,49.18,14.85,33.872000000000035,7.71
Palora,44,EC,1547607064,100,-1.7,-77.97,58.98200000000001,0.56
Lucea,20,JM,1547604000,78,18.44,-78.17,77.0,2.6
Shetpe,8,KZ,1547607064,94,44.14,52.16,36.75200000000008,8.36
Baoqing,48,CN,1547607064,42,46.32,132.2,8.762000000000057,5.21
Golfito,0,CR,1547606969,91,8.64,-83.17,81.21200000000006,3.11
Udayagiri,0,IN,1547607064,60,12.32,76.68,61.682000000000016,3.31
Bethel,75,US,1547603760,78,60.79,-161.76,35.96000000000008,1.5
Soyo,56,AO,1547606956,98,-6.13,12.37,74.91200000000006,1.16
Ferrol,92,ES,1547604000,87,43.48,-8.23,48.2,2.1
Sezze,0,IT,1547605200,81,41.5,13.06,48.2,2.6
Bari Sadri,0,IN,1547604000,93,24.42,74.48,42.8,1.26
Puerto Baquerizo Moreno,0,EC,1547607066,98,-0.9,-89.6,77.25200000000008,4.21
Vestmannaeyjar,0,IS,1547607066,100,63.44,-20.27,27.391999999999996,9.26
Trincomalee,36,LK,1547607066,86,8.58,81.23,78.78200000000001,4.01
Tura,0,IN,1547607067,81,25.52,90.21,59.432000000000016,1.66
Zheleznodorozhnyy,40,RU,1547605800,92,55.75,38.0,23.0,3.0
Rome,0,IT,1547605200,81,41.89,12.48,48.2,2.6
Tungawan,76,PH,1547607067,70,7.6,122.42,80.58200000000002,4.91
Bucerias,90,MX,1547603040,88,20.76,-105.33,78.8,1.0
Roald,80,NO,1547605200,86,62.58,6.12,30.2,3.1
Coquimbo,0,CL,1547604000,87,-29.95,-71.34,59.0,3.1
Lithgow,0,AU,1547605800,50,-33.48,150.16,95.0,2.6
Nantucket,1,US,1547606100,79,41.28,-70.1,24.08000000000004,2.31
Middelburg,8,ZA,1547607068,95,-25.77,29.46,62.13200000000002,2.96
La Ronge,20,CA,1547604000,82,55.1,-105.3,-20.199999999999953,1.31
Byron Bay,0,AU,1547604000,51,-28.65,153.62,93.2,8.2
Kurchum,92,KZ,1547607069,85,48.57,83.65,27.932000000000016,8.96
Pitkyaranta,88,RU,1547607069,93,61.57,31.48,26.672000000000036,1.41
Nerchinskiy Zavod,0,RU,1547607074,56,51.31,119.61,-7.167999999999985,2.11
Xuddur,20,SO,1547607074,75,4.12,43.89,66.36200000000005,4.76
Sanzieni,56,RO,1547607074,75,46.05,26.13,24.872000000000035,3.41
Aginskoye,0,RU,1547607075,63,51.11,114.54,9.841999999999995,1.51
Naze,0,NG,1547607075,94,5.43,7.07,72.30200000000008,1.51
Paita,44,PE,1547607075,75,-5.09,-81.11,75.45200000000008,3.71
Am Timan,0,TD,1547607075,26,11.04,20.28,66.18200000000002,4.76
Lompoc,90,US,1547604900,86,34.64,-120.46,55.94000000000002,5.7
Imeni Zhelyabova,24,RU,1547607075,76,58.95,36.6,18.932000000000016,4.46
San Patricio,64,PY,1547607076,98,-26.98,-56.83,73.38200000000002,0.31
Hounde,0,BF,1547607076,47,11.5,-3.52,60.872000000000035,1.96
Katsuura,75,JP,1547604000,79,33.93,134.5,48.2,5.1
Tarakan,75,ID,1547605800,94,3.3,117.63,77.0,1.0
Lorengau,48,PG,1547607076,98,-2.02,147.27,83.82200000000003,4.86
Malindi,36,KE,1547607077,94,-3.22,40.12,77.43200000000002,1.51
Conde,56,BR,1547607077,89,-11.81,-37.61,78.33200000000002,3.11
Dunedin,44,NZ,1547607061,75,-45.87,170.5,74.10200000000007,1.46
Praia,0,BR,1547604000,61,-20.25,-43.81,77.0,2.6
Nadym,80,RU,1547607080,78,65.53,72.51,9.032000000000018,4.11
Quatre Cocos,40,MU,1547604000,88,-20.21,57.76,75.2,2.1
Rio Muerto,5,MX,1547603100,72,27.42,-110.23,66.2,1.5
Allapalli,0,IN,1547607081,81,19.43,80.06,64.38200000000002,1.96
Baker City,90,US,1547603580,81,44.77,-117.83,32.0,3.6
Aykhal,80,RU,1547607081,30,65.95,111.51,-21.92799999999996,5.51
Boca do Acre,88,BR,1547607081,97,-8.76,-67.39,75.81200000000005,0.61
Bisira,0,PA,1547607081,76,8.52,-81.71,71.76200000000006,2.31
Qandala,20,SO,1547607082,100,11.47,49.87,57.182000000000016,1.16
Bin Qirdan,0,TN,1547607082,84,33.14,11.22,40.71200000000006,1.31
Kjopsvik,48,NO,1547605200,92,68.1,16.37,12.2,1.5
Dori,0,BF,1547607082,43,14.03,-0.03,58.80200000000008,2.31
Kodyma,0,UA,1547607083,73,48.1,29.13,13.802000000000078,3.31
Bacolod,88,PH,1547607083,72,10.68,122.95,78.87200000000004,6.86
Isiro,0,CD,1547607083,92,2.77,27.62,69.15200000000007,1.01
Jardim,0,BR,1547607083,78,-21.48,-56.15,77.07200000000003,1.46
Polis,90,CY,1547604000,72,35.04,32.42,59.0,10.3
Toamasina,75,MG,1547604000,94,-18.17,49.38,75.2,1.36
Kruisfontein,68,ZA,1547607084,95,-34.0,24.73,65.10200000000007,2.86
Bambous Virieux,40,MU,1547604000,88,-20.34,57.76,75.2,2.1
Warin Chamrap,68,TH,1547604000,65,15.19,104.86,77.0,3.6
Himare,0,AL,1547605200,48,40.1,19.74,42.8,1.31
Puerto Madero,20,AR,1547606100,100,-34.61,-58.36,69.8,1.0
Akdagmadeni,92,TR,1547607085,94,39.66,35.88,25.052000000000078,1.51
Tatarsk,56,RU,1547607085,76,55.22,75.96,11.552000000000078,1.96
Mayo,90,CA,1547604000,84,63.59,-135.9,8.600000000000001,1.21
Bayji,68,IQ,1547607086,91,34.93,43.49,42.872000000000035,3.56
Usinsk,76,RU,1547607086,85,66.0,57.56,16.682000000000016,3.86
Zlocieniec,92,PL,1547607086,93,53.53,16.01,38.372000000000035,6.91
Surt,12,LY,1547607091,100,31.21,16.59,53.852000000000075,4.36
Shenjiamen,92,CN,1547607092,100,29.96,122.3,45.48200000000001,8.31
Myitkyina,0,MM,1547607092,79,25.38,97.4,60.15200000000008,1.31
Arkhipo-Osipovka,92,RU,1547607092,97,44.37,38.53,48.272000000000034,6.91
Craig,90,US,1547606100,68,40.52,-107.55,30.02000000000006,1.41
Deer Lake,75,CA,1547604000,85,49.18,-57.43,17.6,2.6
Sioux Lookout,75,CA,1547606880,77,50.1,-91.92,-2.199999999999946,3.1
Charlestown,1,US,1547606100,85,41.38,-71.64,33.08000000000004,2.81
